[
  {
    "id": "1",
    "name": "Pharmacie Château-D'eau",
    "address": "Près du Château d'eau de Bè",
    "phone": "+228 96 80 08 88",
    "whatsapp": "+228 96 80 08 88",
    "quartier": "Bè",
    "latitude": 6.1319,
    "longitude": 1.2123,
    "isOnDuty": true,
    "hours": "24h/24",
    "medications": ["Paracétamol", "Amoxicilline", "Ibuprofène", "Vitamine C", "Aspirine"]
  },
  {
    "id": "2",
    "name": "Pharmacie Santé",
    "address": "Près de NOPATO",
    "phone": "+228 70 44 91 37",
    "whatsapp": "+228 70 44 91 37",
    "quartier": "NOPATO",
    "latitude": 6.1289,
    "longitude": 1.2156,
    "isOnDuty": true,
    "hours": "24h/24",
    "medications": ["Paracétamol", "Doliprane", "Amoxicilline", "Métronidazole", "Fer"]
  },
  {
    "id": "3",
    "name": "Pharmacie du 3e Arrondissement",
    "address": "219, Boulevard du 13 janvier à côté de l'immeuble Fiata, Golfe 4",
    "phone": "+228 22 21 52 27",
    "whatsapp": "+228 96 32 97 71",
    "quartier": "Golfe 4",
    "latitude": 6.1356,
    "longitude": 1.2189,
    "isOnDuty": false,
    "hours": "8h-20h",
    "medications": ["Paracétamol", "Amoxicilline", "Ciprofloxacine", "Oméprazole", "Vitamine B"]
  },
  {
    "id": "4",
    "name": "Pharmacie Bon Pasteur",
    "address": "44 Av. de la libération en face de Brother Home",
    "phone": "+228 91 43 44 84",
    "whatsapp": "+228 91 43 44 84",
    "quartier": "Libération",
    "latitude": 6.1278,
    "longitude": 1.2234,
    "isOnDuty": false,
    "hours": "7h30-21h",
    "medications": ["Paracétamol", "Ibuprofène", "Amoxicilline", "Acide folique", "Fer"]
  },
  {
    "id": "5",
    "name": "Pharmacie Hanoukopé",
    "address": "Avenue de la Nouvelle Marche, Immeuble Radio Kanal FM",
    "phone": "+228 96 80 09 26",
    "whatsapp": "+228 96 80 09 26",
    "quartier": "Nouvelle Marche",
    "latitude": 6.1312,
    "longitude": 1.2267,
    "isOnDuty": false,
    "hours": "8h-20h",
    "medications": ["Paracétamol", "Doliprane", "Amoxicilline", "Métronidazole", "Vitamine C"]
  },
  {
    "id": "6",
    "name": "Pharmacie Cristal",
    "address": "Bd Felix Houphët-Boigny, face EPP BE-AKLASSOU",
    "phone": "+228 70 44 40 18",
    "whatsapp": "+228 70 44 40 18",
    "quartier": "Bè-Aklassou",
    "latitude": 6.1345,
    "longitude": 1.2198,
    "isOnDuty": false,
    "hours": "8h-21h",
    "medications": ["Paracétamol", "Ibuprofène", "Amoxicilline", "Ciprofloxacine", "Aspirine"]
  },
  {
    "id": "7",
    "name": "Pharmacie Horizon",
    "address": "165, Bd du 13 janvier Nyékonkpoè. Face Sapeurs-Pompiers",
    "phone": "+228 90 56 52 56",
    "whatsapp": "+228 90 56 52 56",
    "quartier": "Nyékonkpoè",
    "latitude": 6.1389,
    "longitude": 1.2212,
    "isOnDuty": true,
    "hours": "24h/24",
    "medications": ["Paracétamol", "Amoxicilline", "Ibuprofène", "Oméprazole", "Vitamine D"]
  },
  {
    "id": "8",
    "name": "Pharmacie Arc-en-Ciel",
    "address": "Agoè-Téléssou, à 50m du Carrefour Margot",
    "phone": "+228 70 42 50 00",
    "whatsapp": "+228 70 42 50 00",
    "quartier": "Agoè-Téléssou",
    "latitude": 6.1823,
    "longitude": 1.1956,
    "isOnDuty": true,
    "hours": "24h/24",
    "medications": ["Paracétamol", "Amoxicilline", "Métronidazole", "Fer", "Acide folique"]
  },
  {
    "id": "9",
    "name": "Pharmacie Shalom",
    "address": "Agoè-Cacavéli, non loin de BKS. Sur Bd Faure Gnassingbé",
    "phone": "+228 93 58 78 23",
    "whatsapp": "+228 93 58 78 23",
    "quartier": "Agoè-Cacavéli",
    "latitude": 6.1756,
    "longitude": 1.1989,
    "isOnDuty": false,
    "hours": "7h-22h",
    "medications": ["Paracétamol", "Doliprane", "Amoxicilline", "Ibuprofène", "Vitamine C"]
  },
  {
    "id": "10",
    "name": "Pharmacie Agoè-Nyivé",
    "address": "A côté de l'Église Catholique d'Agoè-Nyivé",
    "phone": "+228 91 61 02 62",
    "whatsapp": "+228 91 61 02 62",
    "quartier": "Agoè-Nyivé",
    "latitude": 6.1789,
    "longitude": 1.2012,
    "isOnDuty": false,
    "hours": "8h-20h",
    "medications": ["Paracétamol", "Amoxicilline", "Ciprofloxacine", "Fer", "Vitamine B"]
  },
  {
    "id": "11",
    "name": "Pharmacie Eli-Beraca",
    "address": "Route d'Adidogomé, Immeuble SIKOVIC face bureau de poste",
    "phone": "+228 99 91 13 42",
    "whatsapp": "+228 99 91 13 42",
    "quartier": "Adidogomé",
    "latitude": 6.1645,
    "longitude": 1.2078,
    "isOnDuty": false,
    "hours": "7h30-21h",
    "medications": ["Paracétamol", "Amoxicilline", "Métronidazole", "Oméprazole", "Vitamine C"]
  },
  {
    "id": "12",
    "name": "Pharmacie La Référence",
    "address": "Route de Kpalimé, Adidogomé Assiyéyé, à côté du bar Madiba",
    "phone": "+228 96 80 09 96",
    "whatsapp": "+228 96 80 09 96",
    "quartier": "Adidogomé Assiyéyé",
    "latitude": 6.1678,
    "longitude": 1.2045,
    "isOnDuty": false,
    "hours": "8h-21h",
    "medications": ["Paracétamol", "Ibuprofène", "Amoxicilline", "Ciprofloxacine", "Aspirine"]
  },
  {
    "id": "13",
    "name": "Pharmacie Notre Dame",
    "address": "Route de l'Aéroport entre la foire TOGO 2000 et l'Aéroport",
    "phone": "+228 96 80 10 12",
    "whatsapp": "+228 96 80 10 12",
    "quartier": "Route Aéroport",
    "latitude": 6.1423,
    "longitude": 1.2534,
    "isOnDuty": false,
    "hours": "8h-20h",
    "medications": ["Paracétamol", "Amoxicilline", "Métronidazole", "Fer", "Vitamine D"]
  },
  {
    "id": "14",
    "name": "Pharmacie Madina",
    "address": "WUITI en face de la cité de la CNSS à côté de UTB Novissi",
    "phone": "+228 91 18 33 33",
    "whatsapp": "+228 91 18 33 33",
    "quartier": "Wuiti",
    "latitude": 6.1267,
    "longitude": 1.2289,
    "isOnDuty": false,
    "hours": "7h-22h",
    "medications": ["Paracétamol", "Doliprane", "Amoxicilline", "Ibuprofène", "Vitamine C"]
  },
  {
    "id": "15",
    "name": "Pharmacie Baguida",
    "address": "En face du CMS de Baguida",
    "phone": "+228 70 42 47 77",
    "whatsapp": "+228 70 42 47 77",
    "quartier": "Baguida",
    "latitude": 6.1156,
    "longitude": 1.2789,
    "isOnDuty": true,
    "hours": "24h/24",
    "medications": ["Paracétamol", "Amoxicilline", "Métronidazole", "Fer", "Acide folique"]
  }
]
